{
  "Center": {
    "name": "Santa Cruz",
    "lat": 36.97283,
    "lng": -122.012215
  },
  "Places": [
    {
      "name": "Los Angeles",
      "lat": 34.05349,
      "lng": -118.24532
    },
    {
      "name": "Berkeley",
      "lat": 37.8715926,
      "lng": -122.272747
    },
    {
      "name": "Campbell",
      "lat": 37.287086,
      "lng": -121.949833
    },
    {
      "name": "Davis",
      "lat": 38.544907,
      "lng": -121.740517
    },
    {
      "name": "El Monte",
      "lat": 34.0794,
      "lng": -118.01614
    },
    {
      "name": "Gold River",
      "lat": 38.6263,
      "lng": -121.2466
    },
    {
      "name": "Hollywood",
      "lat": 34.0928092,
      "lng": -118.32866139999999
    },
    {
      "name": "Foster City",
      "lat": 37.561882,
      "lng": -122.26644
    },
    {
      "name": "San Diego",
      "lat": 32.715,
      "lng": -117.1625
    }
  ]
}
